timestamp,altitude_ft,speed_knots,temperature_c,fuel_level_percent,engine_rpm,oil_pressure_psi,cabin_pressure_psi,heading_deg,pitch_deg,roll_deg,vertical_speed_fpm
2026-03-30 12:00:00,34999.84,448.29,-49.98,84.99,8393.47,57.94,10.89,181.10,0.50,0.12,-9.58
2026-03-30 12:00:01,34999.92,449.69,-50.06,84.98,8390.93,57.91,10.90,180.88,0.59,0.27,4.82
2026-03-30 12:00:02,34999.69,448.81,-50.06,84.96,8379.57,57.87,10.91,180.21,0.56,0.15,-13.89
2026-03-30 12:00:03,34999.45,448.89,-50.08,84.95,8392.81,57.89,10.89,181.00,0.66,-0.00,-14.53
2026-03-30 12:00:04,35000.07,448.50,-50.01,84.95,8412.23,58.06,10.90,180.07,0.69,-0.15,37.22
2026-03-30 12:00:05,35001.97,449.43,-50.06,84.93,8415.05,58.01,10.91,178.80,0.72,-0.32,114.34
2026-03-30 12:00:06,35005.57,451.14,-50.08,84.92,8401.00,58.06,10.90,177.38,0.67,-0.38,216.11
2026-03-30 12:00:07,35007.21,450.78,-50.12,84.90,8412.47,57.98,10.90,176.97,0.69,-0.47,98.18
2026-03-30 12:00:08,35008.72,449.43,-50.15,84.89,8429.82,57.74,10.91,176.61,0.61,-0.32,90.79
2026-03-30 12:00:09,35010.02,450.26,-50.13,84.88,8431.78,57.61,10.91,176.99,0.56,-0.38,77.89
2026-03-30 12:00:10,35011.04,450.03,-50.03,84.87,8444.51,57.45,10.93,176.38,0.59,-0.21,60.89
2026-03-30 12:00:11,35012.51,451.33,-50.05,84.85,8453.35,57.65,10.92,175.47,0.50,-0.19,88.13
2026-03-30 12:00:12,35013.55,450.00,-49.90,84.83,8435.93,57.85,10.91,176.64,0.42,0.00,62.86
2026-03-30 12:00:13,35014.67,449.52,-49.96,84.82,8432.44,57.69,10.93,177.51,0.37,0.01,66.84
2026-03-30 12:00:14,35016.62,451.39,-49.85,84.81,8445.39,57.94,10.94,178.66,0.40,-0.01,117.38
2026-03-30 12:00:15,35017.47,452.25,-49.84,84.80,8452.57,57.87,10.94,177.91,0.35,-0.21,50.70
2026-03-30 12:00:16,35019.38,451.54,-49.89,84.78,8441.49,57.65,10.95,178.61,0.40,-0.29,114.86
2026-03-30 12:00:17,35022.43,450.67,-49.97,84.77,8429.50,57.52,10.96,179.23,0.43,-0.39,182.88
2026-03-30 12:00:18,35027.43,450.03,-49.88,84.75,8420.41,57.67,10.95,180.38,0.32,-0.29,299.91
2026-03-30 12:00:19,35033.37,448.03,-49.92,84.74,8422.82,57.62,10.96,180.60,0.40,-0.36,356.30
2026-03-30 12:00:20,35039.03,447.43,-50.07,84.74,8413.78,57.45,10.96,181.83,0.34,-0.32,339.66
2026-03-30 12:00:21,35042.81,446.76,-50.22,84.72,8400.73,57.58,10.96,182.18,0.44,-0.18,226.67
2026-03-30 12:00:22,35047.19,446.42,-50.31,84.70,8396.09,57.44,10.97,181.13,0.41,-0.08,262.73
2026-03-30 12:00:23,35052.44,448.18,-50.43,84.69,8407.45,57.57,10.96,182.03,0.44,-0.18,315.09
2026-03-30 12:00:24,35056.55,446.65,-50.33,84.67,8399.58,57.33,10.98,181.65,0.43,-0.31,246.69
2026-03-30 12:00:25,35062.32,447.01,-50.22,84.67,8395.39,57.37,10.98,181.24,0.35,-0.28,346.03
2026-03-30 12:00:26,35067.92,448.24,-50.12,84.67,8387.12,57.46,10.98,180.47,0.24,-0.28,336.35
2026-03-30 12:00:27,35074.35,447.11,-50.12,84.65,8384.07,57.65,10.96,181.07,0.31,-0.41,385.90
2026-03-30 12:00:28,35081.80,445.54,-50.13,84.63,8371.65,57.56,10.97,181.86,0.20,-0.43,446.54
2026-03-30 12:00:29,35091.04,445.33,-50.17,84.63,8371.43,57.43,10.97,180.74,0.19,-0.31,554.53
2026-03-30 12:00:30,35102.14,444.44,-50.27,84.61,8366.01,57.27,10.95,181.70,0.22,-0.49,666.39
2026-03-30 12:00:31,35113.34,446.00,-50.33,84.59,8367.93,57.48,10.93,181.78,0.11,-0.67,671.64
2026-03-30 12:00:32,35124.41,444.33,-50.46,84.57,8372.24,57.45,10.95,182.15,0.11,-0.64,664.43
2026-03-30 12:00:33,35133.90,442.63,-50.53,84.56,8388.61,57.61,10.95,180.84,0.13,-0.81,569.52
2026-03-30 12:00:34,35143.49,442.84,-50.52,84.55,8405.49,57.61,10.97,181.10,0.22,-0.97,575.29
2026-03-30 12:00:35,35151.44,442.77,-50.66,84.53,8423.99,57.77,10.97,182.48,0.29,-0.98,477.04
2026-03-30 12:00:36,35160.28,441.96,-50.58,84.52,8418.11,57.87,10.97,181.83,0.33,-0.80,529.99
2026-03-30 12:00:37,35167.91,440.86,-50.60,84.51,8405.36,57.80,10.98,182.09,0.26,-0.62,458.19
2026-03-30 12:00:38,35175.97,439.28,-50.49,84.49,8391.70,57.61,10.97,181.50,0.23,-0.51,483.71
2026-03-30 12:00:39,35182.91,440.41,-50.39,84.49,8397.89,57.62,10.95,181.94,0.33,-0.68,416.26
2026-03-30 12:00:40,35189.74,439.36,-50.52,84.48,8402.34,57.61,10.93,183.39,0.44,-0.79,409.45
2026-03-30 12:00:41,35195.34,438.50,-50.55,84.47,8387.42,57.40,10.92,182.38,0.44,-0.63,336.35
2026-03-30 12:00:42,35199.62,440.00,-50.57,84.45,8379.94,57.39,10.92,182.87,0.34,-0.73,256.67
2026-03-30 12:00:43,35205.26,438.99,-50.45,84.43,8372.83,57.45,10.92,184.33,0.32,-0.82,338.13
2026-03-30 12:00:44,35209.64,439.53,-50.34,84.43,8390.08,57.35,10.91,185.49,0.36,-0.74,263.34
2026-03-30 12:00:45,35213.70,440.79,-50.26,84.43,8407.46,57.56,10.90,186.03,0.44,-0.76,243.21
2026-03-30 12:00:46,35217.87,442.21,-50.34,84.41,8402.86,57.66,10.91,185.25,0.49,-0.58,250.12
2026-03-30 12:00:47,35222.99,442.35,-50.39,84.40,8393.00,57.89,10.90,185.11,0.60,-0.61,307.56
2026-03-30 12:00:48,35228.54,441.09,-50.42,84.39,8375.16,57.69,10.88,184.25,0.60,-0.54,333.02
2026-03-30 12:00:49,35232.99,443.04,-50.33,84.38,8389.93,57.91,10.88,182.98,0.57,-0.70,266.74
2026-03-30 12:00:50,35237.82,442.78,-50.47,84.36,8370.92,57.73,10.87,181.61,0.52,-0.87,289.70
2026-03-30 12:00:51,35242.23,440.85,-50.40,84.35,8362.12,57.54,10.88,181.62,0.57,-0.88,264.59
2026-03-30 12:00:52,35246.53,440.51,-50.49,84.34,8379.69,57.64,10.86,182.97,0.47,-0.95,258.02
2026-03-30 12:00:53,35248.88,441.85,-50.47,84.34,8365.18,57.82,10.85,183.42,0.57,-0.87,141.23
2026-03-30 12:00:54,35251.08,443.17,-50.39,84.32,8366.79,57.69,10.84,183.97,0.52,-0.95,131.69
2026-03-30 12:00:55,35254.24,442.17,-50.33,84.32,8359.31,57.70,10.86,182.56,0.59,-1.00,189.79
2026-03-30 12:00:56,35256.78,443.40,-50.43,84.31,8350.52,57.60,10.86,183.46,0.51,-0.92,152.63
2026-03-30 12:00:57,35257.38,443.97,-50.58,84.29,8368.59,57.37,10.88,184.82,0.57,-0.77,35.75
2026-03-30 12:00:58,35256.70,444.71,-50.55,84.28,8387.27,57.17,10.86,185.16,0.65,-0.73,-40.53
2026-03-30 12:00:59,35256.62,443.95,-50.49,84.26,8378.36,57.39,10.87,186.31,0.74,-0.85,-4.72
2026-03-30 12:01:00,35257.54,445.79,-50.41,84.26,8393.49,57.19,10.87,185.44,0.82,-0.93,55.15
2026-03-30 12:01:01,35258.47,445.60,-50.34,84.25,8386.23,57.15,10.88,186.01,0.72,-0.73,55.33
2026-03-30 12:01:02,35257.88,443.62,-50.35,84.25,8374.39,57.28,10.88,185.67,0.83,-0.78,-35.02
2026-03-30 12:01:03,35256.34,444.35,-50.47,84.23,8361.17,57.50,10.87,185.70,0.73,-0.88,-92.32
2026-03-30 12:01:04,35255.74,443.09,-50.38,84.22,8359.07,57.45,10.86,186.66,0.64,-0.79,-36.08
2026-03-30 12:01:05,35254.17,441.36,-50.38,84.21,8363.28,57.43,10.86,186.04,0.68,-0.88,-94.44
2026-03-30 12:01:06,35253.74,443.15,-50.49,84.20,8355.13,57.48,10.85,186.74,0.58,-1.00,-25.77
2026-03-30 12:01:07,35254.61,443.97,-50.44,84.18,8353.14,57.70,10.87,187.42,0.52,-1.09,52.30
2026-03-30 12:01:08,35254.90,445.91,-50.31,84.18,8369.69,57.73,10.88,185.97,0.61,-0.99,17.17
2026-03-30 12:01:09,35256.33,445.34,-50.37,84.16,8349.82,57.81,10.87,187.19,0.51,-0.97,85.78
2026-03-30 12:01:10,35255.77,446.74,-50.50,84.14,8357.25,57.66,10.89,186.98,0.39,-1.00,-33.64
2026-03-30 12:01:11,35256.67,446.59,-50.48,84.13,8354.64,57.45,10.89,187.00,0.28,-1.19,54.40
2026-03-30 12:01:12,35258.05,448.08,-50.49,84.11,8349.18,57.29,10.91,185.65,0.21,-1.25,82.73
2026-03-30 12:01:13,35258.24,447.45,-50.63,84.10,8348.72,57.16,10.92,185.33,0.18,-1.09,11.27
2026-03-30 12:01:14,35259.80,446.22,-50.71,84.08,8353.30,57.15,10.93,185.74,0.15,-1.26,93.95
2026-03-30 12:01:15,35261.06,445.36,-50.71,84.07,8370.74,57.36,10.91,186.09,0.06,-1.15,75.41
2026-03-30 12:01:16,35262.99,445.27,-50.81,84.06,8365.42,57.19,10.91,185.50,0.13,-1.31,115.85
2026-03-30 12:01:17,35264.30,445.88,-50.87,84.04,8355.02,57.15,10.90,186.63,0.11,-1.27,78.51
2026-03-30 12:01:18,35265.18,446.28,-50.88,84.03,8338.47,57.11,10.89,187.94,0.01,-1.27,52.51
2026-03-30 12:01:19,35267.68,447.93,-50.93,84.01,8326.79,57.14,10.88,187.13,-0.01,-1.20,150.38
2026-03-30 12:01:20,35270.89,447.05,-50.88,84.00,8322.36,57.20,10.86,187.14,0.05,-1.05,192.30
2026-03-30 12:01:21,35272.71,445.69,-50.85,83.99,8340.68,57.37,10.85,188.02,0.02,-1.13,109.31
2026-03-30 12:01:22,35274.44,446.85,-50.82,83.98,8346.26,57.31,10.84,187.11,0.04,-0.98,103.75
2026-03-30 12:01:23,35276.14,446.18,-50.96,83.96,8365.47,57.38,10.85,187.75,-0.01,-1.18,101.86
2026-03-30 12:01:24,35279.80,445.38,-51.01,83.96,8377.57,57.46,10.86,187.04,-0.10,-1.21,220.14
2026-03-30 12:01:25,35281.58,444.64,-51.12,83.95,8389.38,57.22,10.87,187.43,-0.09,-1.35,106.49
2026-03-30 12:01:26,35283.09,446.14,-51.10,83.93,8402.86,57.19,10.86,188.93,-0.17,-1.20,90.45
2026-03-30 12:01:27,35284.22,444.46,-51.13,83.92,8384.61,57.00,10.85,188.61,-0.08,-1.11,67.97
2026-03-30 12:01:28,35284.59,445.44,-51.18,83.91,8375.50,56.93,10.84,187.40,-0.02,-0.95,22.33
2026-03-30 12:01:29,35285.31,445.64,-51.14,83.90,8370.48,56.88,10.84,185.91,0.04,-1.06,43.04
2026-03-30 12:01:30,35285.65,446.72,-51.10,83.89,8360.94,56.76,10.85,184.51,0.08,-1.18,20.19
2026-03-30 12:01:31,35287.14,445.94,-51.06,83.87,8342.20,56.83,10.86,185.14,0.03,-0.99,89.55
2026-03-30 12:01:32,35290.25,444.41,-51.04,83.86,8327.82,56.61,10.86,184.48,-0.04,-0.97,186.46
2026-03-30 12:01:33,35293.23,445.10,-51.10,83.85,8337.40,56.57,10.86,184.48,-0.14,-0.95,179.10
2026-03-30 12:01:34,35295.68,446.83,-51.15,83.83,8320.41,56.44,10.87,185.55,-0.23,-1.03,147.22
2026-03-30 12:01:35,35300.08,446.07,-51.29,83.83,8310.64,56.65,10.88,185.44,-0.15,-0.84,263.54
2026-03-30 12:01:36,35305.84,444.38,-51.33,83.81,8300.88,56.47,10.88,186.80,-0.12,-1.03,345.95
2026-03-30 12:01:37,35310.09,443.27,-51.48,83.79,8288.46,56.65,10.89,187.15,-0.19,-1.03,254.87
2026-03-30 12:01:38,35314.43,443.53,-51.45,83.79,8280.47,56.72,10.87,186.99,-0.10,-0.84,260.45
2026-03-30 12:01:39,35320.23,441.95,-51.54,83.78,8272.05,56.55,10.88,186.13,-0.10,-0.93,347.96
2026-03-30 12:01:40,35325.15,442.55,-51.69,83.77,8291.72,56.61,10.87,184.79,0.02,-0.95,295.25
2026-03-30 12:01:41,35329.19,441.97,-51.67,83.75,8298.48,56.40,10.87,184.94,0.05,-0.95,242.35
2026-03-30 12:01:42,35332.47,443.95,-51.64,83.75,8300.12,56.24,10.88,185.81,-0.05,-0.90,196.49
2026-03-30 12:01:43,35334.24,445.39,-51.57,83.74,8308.61,56.43,10.88,186.93,-0.16,-0.71,106.74
2026-03-30 12:01:44,35335.66,445.96,-51.59,83.74,8314.93,56.45,10.87,187.90,-0.26,-0.86,85.07
2026-03-30 12:01:45,35338.53,445.90,-51.73,83.73,8324.31,56.31,10.88,189.29,-0.18,-0.73,171.92
2026-03-30 12:01:46,35339.46,443.98,-51.74,83.71,8306.13,56.29,10.86,189.19,-0.13,-0.66,55.97
2026-03-30 12:01:47,35342.13,443.37,-51.82,83.71,8321.18,56.38,10.88,188.22,-0.07,-0.49,160.20
2026-03-30 12:01:48,35345.02,442.78,-51.90,83.69,8303.14,56.21,10.88,189.51,-0.08,-0.45,173.36
2026-03-30 12:01:49,35349.84,440.89,-52.02,83.67,8298.00,56.29,10.88,188.78,0.04,-0.52,289.23
2026-03-30 12:01:50,35354.42,439.66,-51.96,83.67,8281.86,56.16,10.87,187.92,0.04,-0.57,274.60
2026-03-30 12:01:51,35357.45,440.11,-51.83,83.66,8282.12,56.01,10.86,188.86,0.01,-0.45,182.06
2026-03-30 12:01:52,35361.41,439.47,-51.95,83.66,8285.71,55.93,10.84,187.74,-0.02,-0.48,237.41
2026-03-30 12:01:53,35365.72,439.45,-52.04,83.64,8269.20,55.86,10.84,186.61,0.02,-0.30,258.66
2026-03-30 12:01:54,35370.24,439.75,-52.02,83.63,8276.39,55.87,10.85,186.21,0.13,-0.40,271.24
2026-03-30 12:01:55,35372.92,440.87,-52.03,83.62,8284.88,55.62,10.85,186.37,0.18,-0.56,161.09
2026-03-30 12:01:56,35376.94,441.96,-52.11,83.61,8280.37,55.87,10.86,184.90,0.07,-0.57,241.19
2026-03-30 12:01:57,35380.13,441.79,-52.03,83.59,8281.34,55.65,10.88,185.76,0.08,-0.44,191.00
2026-03-30 12:01:58,35381.76,443.31,-51.91,83.58,8296.35,55.48,10.87,184.75,0.20,-0.28,97.79
2026-03-30 12:01:59,35384.04,441.96,-52.04,83.58,8291.99,55.68,10.88,183.88,0.30,-0.40,136.82
2026-03-30 12:02:00,35385.39,441.53,-52.03,83.57,8303.67,55.46,10.86,182.51,0.40,-0.52,81.05
2026-03-30 12:02:01,35385.95,441.99,-51.99,83.57,8288.30,55.70,10.87,183.72,0.48,-0.47,33.87
2026-03-30 12:02:02,35387.03,443.67,-51.99,83.55,8275.39,55.65,10.86,185.09,0.47,-0.54,64.75
2026-03-30 12:02:03,35386.54,442.89,-51.87,83.54,8256.10,55.64,10.85,185.18,0.35,-0.57,-29.34
2026-03-30 12:02:04,35385.29,440.94,-51.79,83.53,8271.85,55.77,10.86,185.58,0.45,-0.41,-75.02
2026-03-30 12:02:05,35382.40,440.24,-51.84,83.52,8291.55,55.79,10.88,185.28,0.55,-0.27,-173.47
2026-03-30 12:02:06,35378.84,439.73,-51.84,83.51,8303.64,55.93,10.86,185.28,0.48,-0.14,-213.89
2026-03-30 12:02:07,35376.08,439.87,-51.90,83.50,8318.65,55.99,10.85,185.08,0.59,-0.13,-165.51
2026-03-30 12:02:08,35372.12,439.34,-52.01,83.49,8329.44,55.83,10.85,184.72,0.61,-0.17,-237.79
2026-03-30 12:02:09,35368.43,438.04,-51.99,83.48,8329.55,56.00,10.85,184.74,0.62,-0.16,-221.28
2026-03-30 12:02:10,35366.72,439.74,-52.08,83.48,8316.32,55.93,10.86,185.12,0.51,-0.15,-102.33
2026-03-30 12:02:11,35366.27,439.10,-52.07,83.47,8318.78,56.13,10.88,184.99,0.48,-0.33,-27.10
2026-03-30 12:02:12,35367.55,437.28,-51.95,83.46,8299.92,55.89,10.88,184.84,0.46,-0.44,76.73
2026-03-30 12:02:13,35366.88,436.95,-51.88,83.44,8294.22,56.06,10.87,185.38,0.42,-0.50,-40.31
2026-03-30 12:02:14,35368.13,438.40,-51.79,83.43,8294.35,56.10,10.89,185.95,0.53,-0.49,75.02
2026-03-30 12:02:15,35369.01,438.44,-51.80,83.41,8291.01,55.95,10.90,185.44,0.60,-0.40,53.19
2026-03-30 12:02:16,35369.67,438.51,-51.78,83.40,8302.26,56.10,10.91,186.00,0.70,-0.32,39.09
2026-03-30 12:02:17,35370.13,437.15,-51.72,83.38,8286.76,56.31,10.91,186.50,0.60,-0.13,28.17
2026-03-30 12:02:18,35369.28,437.23,-51.71,83.37,8270.25,56.27,10.93,186.15,0.53,-0.10,-51.26
2026-03-30 12:02:19,35367.72,436.12,-51.86,83.36,8285.94,56.15,10.92,185.04,0.62,-0.04,-93.76
2026-03-30 12:02:20,35366.63,434.38,-51.92,83.34,8269.03,56.06,10.92,185.45,0.60,-0.19,-65.41
2026-03-30 12:02:21,35364.23,434.40,-51.83,83.33,8281.42,55.87,10.94,186.82,0.65,-0.27,-143.81
2026-03-30 12:02:22,35361.43,433.03,-51.74,83.33,8280.39,55.67,10.94,186.64,0.75,-0.19,-167.97
2026-03-30 12:02:23,35357.20,431.57,-51.82,83.32,8270.84,55.54,10.95,186.97,0.84,-0.09,-253.91
2026-03-30 12:02:24,35354.90,431.97,-51.82,83.30,8275.46,55.70,10.95,187.01,0.79,-0.01,-137.87
2026-03-30 12:02:25,35353.21,432.54,-51.77,83.29,8261.19,55.49,10.97,187.56,0.71,0.08,-101.52
2026-03-30 12:02:26,35350.71,433.52,-51.69,83.28,8267.62,55.33,10.96,187.63,0.69,0.20,-149.82
2026-03-30 12:02:27,35349.45,434.05,-51.75,83.28,8258.68,55.18,10.96,187.28,0.59,0.10,-76.04
2026-03-30 12:02:28,35348.67,434.09,-51.84,83.27,8266.65,55.10,10.96,188.04,0.54,-0.02,-46.60
2026-03-30 12:02:29,35346.59,435.48,-51.97,83.26,8264.35,55.27,10.96,186.88,0.59,-0.04,-124.69
2026-03-30 12:02:30,35342.99,435.48,-52.05,83.26,8255.10,55.26,10.95,188.15,0.69,-0.20,-216.24
2026-03-30 12:02:31,35339.88,433.99,-52.05,83.24,8273.30,55.34,10.93,188.58,0.72,-0.24,-186.35
2026-03-30 12:02:32,35335.57,433.12,-51.90,83.23,8261.43,55.13,10.94,189.39,0.64,-0.05,-258.66
2026-03-30 12:02:33,35331.14,432.14,-51.93,83.21,8281.17,55.06,10.95,190.21,0.56,0.01,-266.06
2026-03-30 12:02:34,35328.16,433.88,-52.01,83.20,8277.14,55.07,10.94,189.76,0.55,-0.05,-178.64
2026-03-30 12:02:35,35326.71,433.24,-52.07,83.19,8283.29,55.25,10.96,190.59,0.47,-0.14,-86.91
2026-03-30 12:02:36,35324.34,432.43,-52.20,83.18,8297.93,55.05,10.97,189.69,0.44,0.00,-142.35
2026-03-30 12:02:37,35320.87,432.92,-52.18,83.17,8282.23,55.07,10.97,188.32,0.41,0.13,-207.85
2026-03-30 12:02:38,35317.79,433.15,-52.16,83.16,8290.16,55.18,10.96,187.20,0.36,-0.05,-185.23
2026-03-30 12:02:39,35315.69,434.33,-52.06,83.15,8270.40,55.16,10.96,186.77,0.25,-0.11,-125.65
2026-03-30 12:02:40,35314.43,435.80,-52.06,83.14,8283.70,55.15,10.95,187.94,0.18,-0.12,-75.82
2026-03-30 12:02:41,35314.75,434.33,-51.97,83.13,8302.79,55.06,10.93,189.03,0.11,-0.16,19.26
2026-03-30 12:02:42,35316.29,433.74,-51.88,83.11,8299.71,54.85,10.95,187.66,0.17,-0.30,92.58
2026-03-30 12:02:43,35316.97,433.85,-51.99,83.10,8300.15,55.03,10.94,186.33,0.07,-0.49,40.95
2026-03-30 12:02:44,35318.97,432.23,-51.97,83.10,8281.52,55.26,10.92,186.42,0.14,-0.50,119.91
2026-03-30 12:02:45,35320.65,434.19,-51.97,83.08,8266.98,55.41,10.92,185.70,0.05,-0.65,100.90
2026-03-30 12:02:46,35322.43,433.32,-51.90,83.07,8284.06,55.49,10.93,184.95,0.04,-0.56,106.27
2026-03-30 12:02:47,35323.52,434.09,-51.77,83.06,8264.91,55.38,10.92,183.97,-0.06,-0.67,65.60
2026-03-30 12:02:48,35325.91,435.38,-51.65,83.06,8266.84,55.43,10.91,183.59,-0.15,-0.68,143.43
2026-03-30 12:02:49,35329.68,434.28,-51.66,83.05,8276.41,55.61,10.90,182.44,-0.06,-0.68,226.45
2026-03-30 12:02:50,35335.25,433.48,-51.60,83.03,8257.07,55.79,10.90,183.02,-0.05,-0.52,333.86
2026-03-30 12:02:51,35340.05,433.73,-51.46,83.01,8265.61,55.81,10.91,183.01,-0.15,-0.39,287.88
2026-03-30 12:02:52,35343.92,434.68,-51.54,83.00,8282.61,55.96,10.91,182.44,-0.24,-0.50,232.31
2026-03-30 12:02:53,35346.62,432.91,-51.69,82.98,8272.80,55.99,10.90,182.16,-0.16,-0.57,162.08
2026-03-30 12:02:54,35351.10,431.74,-51.58,82.98,8281.75,55.76,10.88,183.30,-0.09,-0.74,268.95
2026-03-30 12:02:55,35357.00,432.87,-51.53,82.97,8284.55,55.58,10.89,184.61,-0.17,-0.76,354.16
2026-03-30 12:02:56,35362.11,432.25,-51.50,82.96,8280.98,55.62,10.89,183.51,-0.17,-0.90,306.35
2026-03-30 12:02:57,35366.36,431.55,-51.50,82.94,8267.87,55.81,10.91,183.36,-0.18,-0.83,254.82
2026-03-30 12:02:58,35371.19,430.59,-51.47,82.93,8253.28,55.99,10.92,182.19,-0.10,-0.94,289.89
2026-03-30 12:02:59,35377.73,429.52,-51.53,82.93,8249.75,56.22,10.90,181.24,-0.19,-1.07,392.25
2026-03-30 12:03:00,35382.37,428.41,-51.51,82.91,8264.80,56.11,10.88,180.63,-0.20,-1.25,278.55
2026-03-30 12:03:01,35385.12,429.22,-51.59,82.90,8259.41,55.94,10.88,181.40,-0.30,-1.33,164.99
2026-03-30 12:03:02,35389.81,429.33,-51.73,82.89,8250.84,56.05,10.87,182.76,-0.30,-1.35,281.23
2026-03-30 12:03:03,35393.95,427.56,-51.74,82.88,8265.97,55.89,10.87,183.69,-0.40,-1.47,248.77
2026-03-30 12:03:04,35399.38,429.11,-51.66,82.88,8274.48,56.09,10.88,182.65,-0.42,-1.44,325.40
2026-03-30 12:03:05,35405.20,427.78,-51.63,82.87,8266.46,56.17,10.87,183.12,-0.42,-1.35,349.39
2026-03-30 12:03:06,35413.01,426.14,-51.48,82.86,8266.24,56.05,10.85,184.10,-0.42,-1.42,468.78
2026-03-30 12:03:07,35420.89,427.07,-51.33,82.86,8263.67,56.15,10.84,185.32,-0.52,-1.42,472.44
2026-03-30 12:03:08,35429.77,425.72,-51.28,82.84,8280.87,56.16,10.85,185.91,-0.51,-1.32,532.88
2026-03-30 12:03:09,35437.00,424.76,-51.37,82.83,8267.94,56.09,10.83,184.67,-0.60,-1.34,433.92
2026-03-30 12:03:10,35442.34,425.12,-51.48,82.82,8272.18,56.28,10.83,185.22,-0.69,-1.48,320.55
2026-03-30 12:03:11,35447.59,426.10,-51.61,82.81,8285.61,56.50,10.81,185.94,-0.77,-1.42,314.96
2026-03-30 12:03:12,35453.43,425.27,-51.48,82.80,8300.00,56.73,10.83,184.59,-0.67,-1.62,350.55
2026-03-30 12:03:13,35457.92,425.88,-51.38,82.79,8304.38,56.89,10.85,184.09,-0.57,-1.63,269.27
2026-03-30 12:03:14,35463.98,424.20,-51.39,82.77,8304.93,57.09,10.84,182.64,-0.59,-1.55,363.44
2026-03-30 12:03:15,35471.94,422.69,-51.39,82.75,8309.39,56.93,10.83,181.46,-0.57,-1.69,478.01
2026-03-30 12:03:16,35480.80,423.92,-51.45,82.74,8317.23,56.86,10.82,180.14,-0.56,-1.49,531.54
2026-03-30 12:03:17,35491.18,425.84,-51.57,82.73,8310.04,56.75,10.80,179.52,-0.55,-1.36,622.64
2026-03-30 12:03:18,35501.14,426.21,-51.50,82.72,8309.81,56.94,10.80,178.12,-0.45,-1.41,597.78
2026-03-30 12:03:19,35510.95,427.06,-51.38,82.70,8309.45,57.19,10.79,177.65,-0.56,-1.51,588.50
2026-03-30 12:03:20,35519.80,425.07,-51.34,82.69,8317.42,57.07,10.80,176.27,-0.63,-1.60,531.01
2026-03-30 12:03:21,35529.67,424.00,-51.21,82.68,8328.21,57.13,10.81,175.41,-0.59,-1.54,592.25
2026-03-30 12:03:22,35538.44,423.05,-51.25,82.67,8341.46,57.16,10.82,176.87,-0.55,-1.61,525.90
2026-03-30 12:03:23,35546.12,422.86,-51.33,82.66,8342.62,57.41,10.82,175.65,-0.63,-1.74,460.83
2026-03-30 12:03:24,35555.09,421.71,-51.37,82.65,8358.84,57.55,10.83,174.81,-0.69,-1.78,538.24
2026-03-30 12:03:25,35565.39,422.80,-51.46,82.64,8376.81,57.54,10.83,174.69,-0.71,-1.75,617.75
2026-03-30 12:03:26,35576.10,422.04,-51.60,82.64,8391.43,57.75,10.83,174.89,-0.81,-1.62,642.79
2026-03-30 12:03:27,35587.69,422.16,-51.54,82.62,8386.10,57.99,10.82,174.89,-0.74,-1.74,695.44
2026-03-30 12:03:28,35597.68,420.48,-51.50,82.61,8375.56,58.11,10.82,173.49,-0.73,-1.74,599.23
2026-03-30 12:03:29,35609.03,420.00,-51.44,82.59,8366.14,58.00,10.81,172.34,-0.74,-1.88,681.34
2026-03-30 12:03:30,35621.05,421.72,-51.50,82.59,8364.76,58.17,10.81,171.10,-0.77,-1.75,721.16
2026-03-30 12:03:31,35634.11,420.65,-51.58,82.58,8371.46,57.97,10.80,171.31,-0.83,-1.57,783.66
2026-03-30 12:03:32,35645.65,420.00,-51.44,82.57,8376.88,57.73,10.81,170.64,-0.75,-1.42,691.96
2026-03-30 12:03:33,35658.55,420.11,-51.32,82.56,8377.01,57.61,10.80,169.35,-0.82,-1.51,774.37
2026-03-30 12:03:34,35670.93,420.22,-51.22,82.55,8366.76,57.83,10.81,168.18,-0.93,-1.53,742.45
2026-03-30 12:03:35,35681.94,420.00,-51.35,82.54,8373.08,57.73,10.80,169.43,-0.82,-1.62,661.07
2026-03-30 12:03:36,35694.34,420.00,-51.23,82.53,8371.49,57.61,10.81,168.76,-0.70,-1.53,743.79
2026-03-30 12:03:37,35707.19,420.69,-51.19,82.52,8384.88,57.62,10.81,169.23,-0.69,-1.34,771.13
2026-03-30 12:03:38,35721.82,420.55,-51.18,82.50,8377.80,57.75,10.79,167.94,-0.77,-1.43,877.58
2026-03-30 12:03:39,35734.94,420.65,-51.25,82.49,8372.51,57.87,10.79,168.97,-0.76,-1.51,787.04
2026-03-30 12:03:40,35748.12,420.00,-51.24,82.47,8383.91,58.09,10.78,168.85,-0.80,-1.60,791.01
2026-03-30 12:03:41,35760.05,420.00,-51.22,82.45,8376.39,58.16,10.77,169.04,-0.72,-1.60,715.59
2026-03-30 12:03:42,35773.21,420.00,-51.28,82.44,8367.33,57.93,10.75,168.74,-0.68,-1.55,789.74
2026-03-30 12:03:43,35787.79,421.38,-51.27,82.43,8354.41,57.98,10.77,167.77,-0.60,-1.46,874.73
2026-03-30 12:03:44,35802.51,420.00,-51.21,82.43,8336.32,58.14,10.77,168.79,-0.71,-1.52,883.50
2026-03-30 12:03:45,35818.06,420.00,-51.22,82.41,8346.89,58.35,10.77,167.57,-0.64,-1.66,933.17
2026-03-30 12:03:46,35831.80,420.00,-51.09,82.40,8331.97,58.55,10.79,167.70,-0.55,-1.85,824.05
2026-03-30 12:03:47,35844.52,420.00,-51.08,82.39,8323.14,58.78,10.81,166.25,-0.58,-1.65,763.22
2026-03-30 12:03:48,35857.84,421.41,-51.22,82.37,8325.40,58.85,10.81,167.63,-0.54,-1.64,799.13
2026-03-30 12:03:49,35872.39,422.83,-51.11,82.35,8327.14,58.91,10.81,166.23,-0.54,-1.61,873.37
2026-03-30 12:03:50,35888.07,424.62,-51.25,82.35,8309.12,59.11,10.81,165.72,-0.45,-1.62,940.60
2026-03-30 12:03:51,35903.52,426.12,-51.16,82.34,8295.17,58.92,10.81,164.41,-0.57,-1.78,926.76
2026-03-30 12:03:52,35917.50,424.20,-51.02,82.34,8281.21,58.99,10.82,165.86,-0.67,-1.67,839.19
2026-03-30 12:03:53,35929.56,425.40,-51.11,82.33,8283.36,58.85,10.82,166.74,-0.57,-1.52,723.49
2026-03-30 12:03:54,35943.23,425.96,-51.22,82.33,8286.85,58.90,10.82,166.61,-0.69,-1.59,819.83
2026-03-30 12:03:55,35956.36,425.28,-51.21,82.32,8286.73,58.97,10.80,167.75,-0.79,-1.45,788.21
2026-03-30 12:03:56,35970.00,427.07,-51.16,82.32,8299.59,58.88,10.79,167.21,-0.81,-1.45,817.97
2026-03-30 12:03:57,35983.14,428.29,-51.09,82.31,8301.70,58.94,10.80,167.18,-0.75,-1.61,788.47
2026-03-30 12:03:58,35995.35,427.87,-51.01,82.31,8285.67,58.83,10.80,167.36,-0.71,-1.80,732.76
2026-03-30 12:03:59,36006.96,428.18,-50.99,82.29,8284.06,59.01,10.81,166.34,-0.61,-1.82,696.38
2026-03-30 12:04:00,36017.20,426.65,-50.86,82.29,8264.76,58.92,10.80,166.65,-0.61,-1.63,614.52
2026-03-30 12:04:01,36028.51,424.67,-50.75,82.28,8284.14,59.05,10.82,167.34,-0.53,-1.78,678.87
2026-03-30 12:04:02,36039.75,425.48,-50.69,82.28,8299.91,59.04,10.83,167.99,-0.64,-1.63,674.30
2026-03-30 12:04:03,36051.10,426.75,-50.74,82.27,8310.06,58.88,10.82,167.80,-0.63,-1.69,681.04
2026-03-30 12:04:04,36062.93,426.01,-50.67,82.25,8322.91,59.13,10.84,169.12,-0.64,-1.61,709.82
2026-03-30 12:04:05,36074.08,426.27,-50.76,82.23,8308.11,58.93,10.84,170.61,-0.60,-1.60,668.65
2026-03-30 12:04:06,36085.04,426.73,-50.82,82.23,8318.79,58.99,10.84,172.07,-0.53,-1.64,657.68
2026-03-30 12:04:07,36096.28,428.40,-50.96,82.22,8301.54,58.89,10.84,171.07,-0.58,-1.50,674.31
2026-03-30 12:04:08,36108.54,430.08,-51.10,82.21,8300.78,58.79,10.84,171.97,-0.49,-1.35,736.16
2026-03-30 12:04:09,36120.42,431.30,-51.04,82.21,8308.58,58.70,10.86,172.11,-0.51,-1.30,712.67
2026-03-30 12:04:10,36131.78,430.61,-51.17,82.20,8310.24,58.92,10.85,172.09,-0.49,-1.48,681.41
2026-03-30 12:04:11,36142.91,428.76,-51.11,82.19,8316.75,59.03,10.84,171.53,-0.46,-1.58,668.02
2026-03-30 12:04:12,36152.60,430.36,-51.12,82.17,8329.81,58.99,10.83,173.00,-0.42,-1.72,581.15
2026-03-30 12:04:13,36162.14,429.81,-51.03,82.16,8333.28,59.02,10.82,174.06,-0.39,-1.66,572.44
2026-03-30 12:04:14,36170.75,428.25,-51.03,82.14,8333.68,59.17,10.80,173.54,-0.37,-1.75,516.44
2026-03-30 12:04:15,36177.70,427.45,-51.15,82.13,8314.03,59.16,10.78,174.12,-0.28,-1.77,416.98
2026-03-30 12:04:16,36183.17,427.32,-51.29,82.12,8310.56,59.11,10.78,175.33,-0.24,-1.93,328.19
2026-03-30 12:04:17,36187.89,428.66,-51.25,82.10,8302.34,59.26,10.79,176.04,-0.27,-1.95,283.42
2026-03-30 12:04:18,36194.03,427.84,-51.33,82.08,8287.12,59.03,10.81,174.57,-0.32,-2.07,368.45
2026-03-30 12:04:19,36199.79,427.32,-51.20,82.08,8285.09,59.08,10.79,173.42,-0.21,-2.02,345.37
2026-03-30 12:04:20,36203.74,427.53,-51.29,82.07,8291.76,59.31,10.81,172.70,-0.11,-2.14,237.04
2026-03-30 12:04:21,36208.61,428.69,-51.35,82.07,8273.75,59.43,10.79,173.84,-0.03,-2.19,292.61
2026-03-30 12:04:22,36214.01,427.65,-51.37,82.06,8286.04,59.32,10.79,174.86,0.01,-2.13,323.80
2026-03-30 12:04:23,36221.05,427.84,-51.47,82.04,8288.26,59.22,10.80,174.11,-0.01,-2.01,422.12
2026-03-30 12:04:24,36229.69,427.75,-51.45,82.03,8307.52,59.26,10.79,172.70,-0.04,-1.85,518.73
2026-03-30 12:04:25,36238.27,426.85,-51.37,82.02,8287.87,59.32,10.80,171.28,0.06,-1.87,514.82
2026-03-30 12:04:26,36248.53,427.33,-51.47,82.00,8278.64,59.45,10.81,170.29,0.10,-1.80,615.41
2026-03-30 12:04:27,36258.09,426.85,-51.34,81.98,8259.60,59.67,10.80,170.98,0.11,-1.99,573.72
2026-03-30 12:04:28,36269.33,426.17,-51.35,81.97,8244.13,59.51,10.80,170.86,-0.01,-2.07,674.56
2026-03-30 12:04:29,36281.83,424.82,-51.25,81.96,8228.84,59.54,10.79,169.79,-0.00,-2.27,749.97
2026-03-30 12:04:30,36294.98,423.62,-51.21,81.94,8246.96,59.46,10.78,170.22,-0.10,-2.19,788.77
2026-03-30 12:04:31,36307.10,422.09,-51.22,81.93,8264.73,59.67,10.79,170.75,-0.07,-2.22,727.22
2026-03-30 12:04:32,36320.11,420.85,-51.23,81.91,8250.73,59.51,10.81,170.54,-0.04,-2.10,780.35
2026-03-30 12:04:33,36332.48,422.81,-51.29,81.89,8254.28,59.69,10.81,170.98,-0.02,-2.06,742.28
2026-03-30 12:04:34,36346.68,423.03,-51.27,81.88,8247.02,59.81,10.82,171.57,-0.05,-2.16,852.38
2026-03-30 12:04:35,36360.63,424.39,-51.15,81.87,8234.53,59.59,10.81,170.11,-0.11,-2.04,836.67
2026-03-30 12:04:36,36373.66,425.36,-51.04,81.86,8224.64,59.75,10.80,169.08,-0.09,-2.00,782.23
2026-03-30 12:04:37,36385.93,425.74,-51.05,81.84,8205.39,59.75,10.78,170.17,-0.10,-1.87,735.96
2026-03-30 12:04:38,36397.15,425.55,-50.93,81.82,8198.96,59.55,10.78,169.05,-0.19,-1.98,673.19
2026-03-30 12:04:39,36407.36,424.51,-50.88,81.81,8212.74,59.62,10.78,169.45,-0.13,-1.91,612.68
2026-03-30 12:04:40,36418.93,422.55,-50.74,81.80,8210.54,59.70,10.78,169.34,-0.12,-1.97,694.35
2026-03-30 12:04:41,36430.25,422.30,-50.67,81.79,8221.51,59.52,10.77,168.64,-0.05,-2.08,679.04
2026-03-30 12:04:42,36442.05,424.00,-50.78,81.78,8211.33,59.53,10.78,169.31,0.02,-1.89,708.05
2026-03-30 12:04:43,36453.99,423.75,-50.85,81.78,8219.74,59.66,10.80,169.86,-0.04,-1.70,716.29
2026-03-30 12:04:44,36465.44,423.51,-50.94,81.76,8230.02,59.70,10.81,169.87,-0.12,-1.73,686.78
2026-03-30 12:04:45,36476.91,424.39,-51.08,81.75,8229.44,59.80,10.83,170.49,-0.10,-1.56,688.48
2026-03-30 12:04:46,36487.63,424.00,-51.12,81.74,8221.06,59.83,10.83,171.47,-0.16,-1.53,643.34
2026-03-30 12:04:47,36498.85,423.33,-51.02,81.73,8220.46,59.94,10.85,170.71,-0.21,-1.41,672.94
2026-03-30 12:04:48,36510.23,424.12,-51.01,81.71,8233.60,59.90,10.86,170.96,-0.30,-1.52,683.02
2026-03-30 12:04:49,36522.76,423.30,-50.99,81.69,8223.71,59.86,10.84,169.78,-0.39,-1.35,751.59
2026-03-30 12:04:50,36533.31,424.65,-50.85,81.69,8238.34,59.86,10.83,169.25,-0.46,-1.37,632.87
2026-03-30 12:04:51,36544.44,425.16,-50.85,81.68,8252.37,60.04,10.82,169.19,-0.49,-1.26,668.06
2026-03-30 12:04:52,36556.89,423.66,-50.76,81.66,8240.54,60.09,10.80,169.30,-0.38,-1.09,747.07
2026-03-30 12:04:53,36571.23,425.01,-50.62,81.65,8237.88,60.03,10.82,169.77,-0.29,-1.06,860.40
2026-03-30 12:04:54,36586.75,426.55,-50.50,81.64,8254.80,60.02,10.83,170.87,-0.36,-1.04,931.11
2026-03-30 12:04:55,36603.24,427.86,-50.40,81.63,8240.37,59.88,10.83,171.85,-0.30,-1.22,989.23
2026-03-30 12:04:56,36620.40,429.59,-50.43,81.62,8225.78,59.89,10.83,171.58,-0.18,-1.08,1029.79
2026-03-30 12:04:57,36637.92,430.65,-50.31,81.61,8226.54,60.02,10.84,170.53,-0.27,-1.25,1051.31
2026-03-30 12:04:58,36656.83,429.03,-50.32,81.60,8230.36,60.01,10.85,169.34,-0.29,-1.43,1134.37
2026-03-30 12:04:59,36675.88,430.75,-50.43,81.59,8240.46,60.06,10.86,170.26,-0.40,-1.32,1143.02
2026-03-30 12:05:00,36695.62,429.05,-50.33,81.58,8225.32,60.31,10.84,169.00,-0.46,-1.38,1184.34
2026-03-30 12:05:01,36715.67,429.04,-50.43,81.58,8213.66,60.12,10.86,170.06,-0.54,-1.31,1202.95
2026-03-30 12:05:02,36734.64,430.17,-50.30,81.57,8231.03,60.00,10.87,170.32,-0.61,-1.48,1138.25
2026-03-30 12:05:03,36753.17,431.80,-50.19,81.56,8228.85,59.80,10.89,170.33,-0.71,-1.35,1111.82
2026-03-30 12:05:04,36771.29,431.68,-50.08,81.55,8210.42,59.86,10.90,169.48,-0.73,-1.39,1087.39
2026-03-30 12:05:05,36787.50,433.07,-50.08,81.54,8201.45,59.80,10.91,168.78,-0.78,-1.34,972.49
2026-03-30 12:05:06,36802.91,433.64,-50.10,81.53,8192.15,60.04,10.92,168.96,-0.75,-1.45,924.77
2026-03-30 12:05:07,36820.30,431.95,-50.03,81.51,8190.22,59.80,10.92,170.44,-0.70,-1.30,1043.37
2026-03-30 12:05:08,36838.06,432.13,-49.99,81.50,8206.85,59.80,10.94,169.83,-0.79,-1.30,1065.44
2026-03-30 12:05:09,36857.76,432.69,-49.92,81.49,8191.19,60.04,10.96,169.21,-0.72,-1.23,1182.20
2026-03-30 12:05:10,36876.18,432.19,-49.89,81.47,8203.73,60.23,10.98,168.77,-0.62,-1.16,1104.79
2026-03-30 12:05:11,36896.17,430.31,-49.91,81.47,8221.72,60.48,10.98,169.21,-0.70,-1.24,1199.32
2026-03-30 12:05:12,36914.77,429.15,-49.92,81.45,8221.76,60.62,10.99,170.35,-0.75,-1.25,1116.50
2026-03-30 12:05:13,36932.53,430.22,-49.84,81.44,8235.06,60.76,11.00,171.78,-0.82,-1.33,1065.60
2026-03-30 12:05:14,36948.74,430.34,-49.71,81.43,8221.02,60.68,11.00,170.99,-0.83,-1.49,972.25
2026-03-30 12:05:15,36965.16,431.11,-49.56,81.42,8220.28,60.60,11.01,169.74,-0.81,-1.53,985.06
2026-03-30 12:05:16,36981.18,429.92,-49.69,81.40,8202.92,60.41,11.00,168.45,-0.75,-1.68,961.44
2026-03-30 12:05:17,36996.60,428.93,-49.67,81.40,8204.44,60.16,10.98,169.34,-0.63,-1.69,924.99
2026-03-30 12:05:18,37010.26,429.83,-49.66,81.38,8194.25,59.96,10.99,169.22,-0.55,-1.67,819.80
2026-03-30 12:05:19,37022.96,429.71,-49.61,81.38,8209.42,59.90,11.01,169.54,-0.48,-1.56,762.04
2026-03-30 12:05:20,37036.74,427.84,-49.70,81.36,8210.77,60.02,11.02,169.78,-0.56,-1.54,826.83
2026-03-30 12:05:21,37050.22,429.57,-49.59,81.35,8229.44,60.09,11.00,170.48,-0.65,-1.57,808.94
2026-03-30 12:05:22,37062.74,429.89,-49.61,81.33,8230.22,60.25,10.99,170.88,-0.76,-1.60,750.86
2026-03-30 12:05:23,37076.11,428.74,-49.56,81.32,8228.36,60.34,10.98,172.33,-0.79,-1.78,802.05
2026-03-30 12:05:24,37088.67,427.92,-49.66,81.30,8209.33,60.14,10.97,172.09,-0.67,-1.95,753.64
2026-03-30 12:05:25,37100.68,428.02,-49.70,81.29,8191.07,60.14,10.95,172.87,-0.79,-1.82,721.15
2026-03-30 12:05:26,37112.59,429.30,-49.73,81.28,8184.93,59.98,10.94,174.01,-0.90,-1.69,714.36
2026-03-30 12:05:27,37125.06,430.91,-49.82,81.26,8177.60,59.88,10.93,174.46,-0.91,-1.59,747.87
2026-03-30 12:05:28,37137.92,430.12,-49.93,81.24,8162.61,59.97,10.93,173.00,-0.85,-1.71,771.84
2026-03-30 12:05:29,37151.49,430.45,-50.07,81.23,8174.37,59.72,10.95,173.82,-0.91,-1.77,814.44
2026-03-30 12:05:30,37164.87,430.24,-50.13,81.22,8185.98,59.64,10.95,172.82,-0.94,-1.60,802.73
2026-03-30 12:05:31,37176.74,429.03,-50.18,81.22,8182.87,59.65,10.95,172.99,-0.92,-1.75,711.95
2026-03-30 12:05:32,37187.21,428.74,-50.05,81.21,8171.11,59.62,10.96,172.55,-0.92,-1.91,628.18
2026-03-30 12:05:33,37197.65,430.27,-49.96,81.20,8155.79,59.44,10.96,171.83,-0.92,-1.94,626.83
2026-03-30 12:05:34,37208.26,429.53,-49.84,81.18,8170.77,59.53,10.96,171.01,-0.86,-1.87,636.07
2026-03-30 12:05:35,37220.69,429.32,-49.88,81.16,8187.91,59.43,10.95,172.21,-0.88,-1.75,745.76
2026-03-30 12:05:36,37233.13,429.42,-49.84,81.15,8202.70,59.47,10.97,172.75,-0.96,-1.59,746.78
2026-03-30 12:05:37,37247.50,427.96,-49.77,81.13,8222.48,59.61,10.97,173.68,-1.02,-1.55,861.85
2026-03-30 12:05:38,37261.30,428.29,-49.87,81.12,8213.34,59.68,10.99,174.07,-0.93,-1.63,828.25
2026-03-30 12:05:39,37273.53,429.08,-49.82,81.12,8193.57,59.69,10.99,175.42,-0.90,-1.76,733.90
2026-03-30 12:05:40,37284.45,427.49,-49.87,81.11,8181.56,59.83,11.01,176.00,-0.89,-1.73,654.95
2026-03-30 12:05:41,37295.68,427.40,-49.74,81.09,8164.76,59.84,11.01,176.56,-0.82,-1.57,674.12
2026-03-30 12:05:42,37305.67,425.63,-49.85,81.07,8145.20,59.89,11.00,177.94,-0.73,-1.69,599.24
2026-03-30 12:05:43,37313.90,425.77,-49.98,81.06,8135.72,60.10,11.00,176.89,-0.66,-1.65,493.99
2026-03-30 12:05:44,37322.44,425.79,-49.98,81.04,8123.69,60.14,11.01,176.07,-0.67,-1.47,512.11
2026-03-30 12:05:45,37331.21,425.27,-49.85,81.02,8137.90,60.14,11.03,175.90,-0.75,-1.51,526.53
2026-03-30 12:05:46,37341.75,423.82,-50.00,81.01,8143.47,60.15,11.03,176.60,-0.64,-1.40,632.45
2026-03-30 12:05:47,37351.00,425.29,-49.89,81.00,8126.18,60.36,11.04,176.79,-0.74,-1.28,554.82
2026-03-30 12:05:48,37359.31,426.88,-49.77,80.99,8130.78,60.23,11.05,177.54,-0.74,-1.13,498.64
2026-03-30 12:05:49,37368.13,425.52,-49.87,80.98,8128.06,60.27,11.03,178.14,-0.67,-1.27,529.00
2026-03-30 12:05:50,37378.54,424.25,-49.89,80.97,8130.91,60.11,11.04,179.28,-0.70,-1.21,624.50
2026-03-30 12:05:51,37387.33,423.86,-49.92,80.96,8125.91,60.21,11.06,180.65,-0.80,-1.25,527.48
2026-03-30 12:05:52,37397.69,422.12,-49.78,80.95,8135.06,60.18,11.06,181.24,-0.74,-1.14,621.95
2026-03-30 12:05:53,37406.18,421.46,-49.65,80.93,8118.04,59.99,11.05,180.33,-0.65,-1.01,509.19
2026-03-30 12:05:54,37414.86,422.62,-49.56,80.92,8122.71,60.10,11.05,180.63,-0.55,-0.93,520.84
2026-03-30 12:05:55,37423.69,421.83,-49.49,80.91,8137.93,60.17,11.04,179.82,-0.65,-1.12,529.71
2026-03-30 12:05:56,37432.02,421.53,-49.45,80.91,8122.72,59.94,11.03,181.09,-0.59,-1.14,499.63
2026-03-30 12:05:57,37442.08,422.00,-49.53,80.90,8114.63,59.82,11.01,181.32,-0.65,-1.04,603.54
2026-03-30 12:05:58,37450.18,420.05,-49.50,80.90,8106.06,59.61,11.03,182.78,-0.54,-0.86,486.29
2026-03-30 12:05:59,37458.82,420.00,-49.39,80.88,8090.44,59.58,11.04,181.76,-0.47,-0.74,518.24
2026-03-30 12:06:00,37466.03,421.41,-49.25,80.88,8093.57,59.58,11.05,182.78,-0.40,-0.57,432.83
2026-03-30 12:06:01,37474.94,422.03,-49.31,80.87,8085.29,59.50,11.04,182.36,-0.36,-0.66,534.36
2026-03-30 12:06:02,37485.10,420.52,-49.28,80.86,8066.07,59.72,11.04,183.19,-0.39,-0.60,609.67
2026-03-30 12:06:03,37493.73,420.44,-49.28,80.85,8066.10,59.92,11.05,184.20,-0.43,-0.60,517.55
2026-03-30 12:06:04,37500.80,420.00,-49.30,80.84,8084.86,59.79,11.03,183.31,-0.46,-0.79,424.71
2026-03-30 12:06:05,37507.14,420.00,-49.30,80.82,8097.47,59.66,11.03,184.21,-0.35,-0.70,379.95
2026-03-30 12:06:06,37512.13,420.13,-49.25,80.81,8088.84,59.64,11.05,182.79,-0.45,-0.72,299.43
2026-03-30 12:06:07,37517.35,420.00,-49.13,80.80,8074.36,59.61,11.03,182.69,-0.44,-0.85,313.10
2026-03-30 12:06:08,37520.68,420.09,-49.09,80.80,8063.66,59.70,11.05,181.78,-0.50,-0.78,200.21
2026-03-30 12:06:09,37525.58,421.58,-49.19,80.78,8065.27,59.59,11.06,181.98,-0.52,-0.84,294.00
2026-03-30 12:06:10,37529.90,423.34,-49.21,80.77,8060.04,59.71,11.08,180.61,-0.47,-0.91,259.20
2026-03-30 12:06:11,37534.82,422.04,-49.34,80.76,8047.53,59.79,11.07,181.86,-0.51,-0.96,294.93
2026-03-30 12:06:12,37540.23,423.77,-49.31,80.75,8044.17,59.77,11.07,180.73,-0.42,-1.05,324.80
2026-03-30 12:06:13,37544.71,423.62,-49.25,80.73,8043.25,59.73,11.05,181.88,-0.41,-1.10,268.47
2026-03-30 12:06:14,37547.30,423.66,-49.36,80.72,8041.92,59.89,11.07,181.69,-0.33,-1.08,155.64
2026-03-30 12:06:15,37550.67,424.95,-49.22,80.71,8038.14,60.01,11.07,182.35,-0.31,-1.15,202.45
2026-03-30 12:06:16,37552.36,423.31,-49.09,80.69,8045.71,59.88,11.07,181.72,-0.35,-1.05,101.09
2026-03-30 12:06:17,37554.97,422.88,-49.10,80.68,8039.82,60.05,11.09,180.89,-0.33,-1.24,156.49
2026-03-30 12:06:18,37555.78,423.14,-49.19,80.68,8053.91,59.96,11.10,180.67,-0.43,-1.11,49.09
2026-03-30 12:06:19,37558.28,422.55,-49.24,80.66,8060.41,59.80,11.11,181.69,-0.45,-1.20,149.86
2026-03-30 12:06:20,37561.51,424.31,-49.23,80.65,8043.77,59.76,11.13,180.78,-0.44,-1.08,193.92
2026-03-30 12:06:21,37564.56,424.07,-49.17,80.65,8058.79,59.60,11.14,179.82,-0.45,-1.06,182.94
2026-03-30 12:06:22,37566.24,424.47,-49.29,80.63,8078.08,59.58,11.13,181.15,-0.40,-1.22,100.68
2026-03-30 12:06:23,37568.51,426.19,-49.42,80.62,8081.89,59.55,11.13,181.12,-0.41,-1.20,136.16
2026-03-30 12:06:24,37570.07,427.11,-49.44,80.60,8067.56,59.37,11.14,180.25,-0.45,-1.05,93.37
2026-03-30 12:06:25,37572.95,427.86,-49.31,80.58,8071.70,59.56,11.15,179.61,-0.44,-1.20,172.83
2026-03-30 12:06:26,37574.16,426.35,-49.42,80.57,8083.98,59.42,11.15,179.39,-0.32,-1.40,72.68
2026-03-30 12:06:27,37576.08,424.90,-49.43,80.56,8085.30,59.63,11.14,178.90,-0.26,-1.36,115.56
2026-03-30 12:06:28,37579.64,424.58,-49.37,80.56,8066.65,59.83,11.16,178.98,-0.34,-1.23,213.13
2026-03-30 12:06:29,37581.26,422.60,-49.28,80.55,8085.24,59.99,11.14,178.02,-0.44,-1.25,97.23
2026-03-30 12:06:30,37583.82,423.01,-49.24,80.54,8094.15,59.94,11.14,176.90,-0.42,-1.33,153.79
2026-03-30 12:06:31,37586.32,421.51,-49.29,80.54,8112.49,60.14,11.15,177.92,-0.43,-1.30,149.82
2026-03-30 12:06:32,37589.31,422.37,-49.15,80.52,8127.06,60.21,11.14,176.46,-0.36,-1.33,179.69
2026-03-30 12:06:33,37590.35,423.26,-49.02,80.50,8134.84,60.15,11.16,176.03,-0.42,-1.48,62.26
2026-03-30 12:06:34,37593.33,424.01,-49.11,80.49,8117.18,60.11,11.17,177.07,-0.33,-1.54,178.76
2026-03-30 12:06:35,37595.81,424.38,-49.16,80.49,8112.95,59.99,11.16,178.38,-0.30,-1.62,148.65
2026-03-30 12:06:36,37599.43,425.78,-49.06,80.47,8101.19,59.77,11.17,178.67,-0.37,-1.76,217.61
2026-03-30 12:06:37,37603.91,425.82,-49.06,80.46,8117.70,59.69,11.15,177.54,-0.36,-1.82,268.64
2026-03-30 12:06:38,37608.66,427.42,-49.00,80.45,8108.79,59.69,11.15,178.14,-0.43,-1.92,284.88
2026-03-30 12:06:39,37613.53,426.29,-49.07,80.44,8097.01,59.61,11.14,176.86,-0.50,-2.09,292.26
2026-03-30 12:06:40,37618.32,428.01,-48.92,80.42,8080.57,59.54,11.15,177.73,-0.48,-1.98,287.55
2026-03-30 12:06:41,37623.99,426.40,-49.01,80.41,8080.91,59.40,11.14,177.55,-0.51,-2.09,340.07
2026-03-30 12:06:42,37628.13,424.85,-49.14,80.39,8063.59,59.25,11.14,178.42,-0.48,-2.03,248.58
2026-03-30 12:06:43,37632.42,425.67,-49.28,80.39,8060.50,59.15,11.13,179.25,-0.51,-2.16,257.17
2026-03-30 12:06:44,37635.40,425.33,-49.28,80.37,8056.01,59.00,11.14,180.72,-0.57,-2.30,179.07
2026-03-30 12:06:45,37640.05,424.09,-49.15,80.35,8052.15,59.08,11.16,180.57,-0.66,-2.22,278.78
2026-03-30 12:06:46,37646.61,423.65,-49.02,80.33,8049.21,59.31,11.14,180.06,-0.70,-2.28,393.34
2026-03-30 12:06:47,37653.98,421.78,-49.00,80.31,8034.09,59.28,11.14,180.78,-0.68,-2.33,442.30
2026-03-30 12:06:48,37660.41,422.77,-48.86,80.31,8035.17,59.26,11.16,181.22,-0.65,-2.28,385.92
2026-03-30 12:06:49,37666.88,421.02,-48.78,80.30,8035.24,59.01,11.16,181.55,-0.76,-2.40,388.06
2026-03-30 12:06:50,37674.10,420.00,-48.70,80.28,8024.62,58.77,11.14,180.87,-0.77,-2.57,433.55
2026-03-30 12:06:51,37681.33,421.00,-48.55,80.26,8035.87,58.74,11.13,181.06,-0.84,-2.40,433.83
2026-03-30 12:06:52,37686.67,422.11,-48.50,80.26,8027.22,58.86,11.15,182.42,-0.88,-2.36,320.08
2026-03-30 12:06:53,37692.56,423.97,-48.36,80.24,8018.04,59.07,11.13,182.15,-0.91,-2.47,353.30
2026-03-30 12:06:54,37699.98,421.98,-48.34,80.23,8031.63,59.18,11.14,181.48,-0.92,-2.44,445.52
2026-03-30 12:06:55,37707.18,422.22,-48.45,80.23,8049.30,59.42,11.14,180.82,-0.80,-2.46,431.62
2026-03-30 12:06:56,37712.58,423.03,-48.41,80.21,8044.16,59.36,11.13,179.47,-0.88,-2.59,324.35
2026-03-30 12:06:57,37719.78,421.67,-48.54,80.20,8061.23,59.46,11.11,177.99,-0.89,-2.74,431.96
2026-03-30 12:06:58,37726.27,421.77,-48.48,80.19,8076.52,59.64,11.12,179.41,-0.85,-2.66,389.23
2026-03-30 12:06:59,37731.91,420.69,-48.39,80.17,8070.46,59.51,11.11,179.18,-0.95,-2.68,338.34
2026-03-30 12:07:00,37737.43,420.00,-48.28,80.17,8077.87,59.58,11.10,179.62,-0.95,-2.74,331.44
2026-03-30 12:07:01,37741.46,420.00,-48.41,80.16,8076.72,59.63,11.09,180.34,-0.85,-2.89,241.60
2026-03-30 12:07:02,37745.01,420.00,-48.54,80.16,8068.87,59.53,11.09,180.92,-0.78,-3.01,213.07
2026-03-30 12:07:03,37746.61,420.00,-48.52,80.14,8084.63,59.53,11.11,180.84,-0.72,-3.13,95.97
2026-03-30 12:07:04,37749.49,420.00,-48.63,80.12,8099.37,59.38,11.10,180.84,-0.77,-3.01,172.75
2026-03-30 12:07:05,37753.79,420.00,-48.77,80.11,8117.09,59.45,11.11,181.95,-0.88,-3.16,257.86
2026-03-30 12:07:06,37756.69,420.00,-48.89,80.11,8099.45,59.63,11.12,182.80,-0.98,-3.36,174.32
2026-03-30 12:07:07,37758.88,420.00,-48.90,80.09,8107.51,59.64,11.10,184.22,-1.10,-3.47,131.24
2026-03-30 12:07:08,37760.50,420.00,-48.77,80.08,8125.77,59.57,11.09,183.47,-1.02,-3.53,97.35
2026-03-30 12:07:09,37762.90,420.00,-48.66,80.07,8136.45,59.48,11.11,183.62,-1.01,-3.70,144.22
2026-03-30 12:07:10,37765.40,421.28,-48.74,80.06,8155.10,59.25,11.10,182.60,-0.90,-3.84,149.63
2026-03-30 12:07:11,37766.98,420.55,-48.72,80.05,8152.49,59.34,11.11,182.31,-0.94,-3.65,94.90
2026-03-30 12:07:12,37767.99,420.00,-48.70,80.04,8141.28,59.47,11.10,183.00,-1.04,-3.82,60.90
2026-03-30 12:07:13,37769.36,420.00,-48.56,80.03,8121.75,59.48,11.10,184.33,-1.13,-3.90,81.70
2026-03-30 12:07:14,37770.23,420.00,-48.49,80.02,8130.79,59.60,11.10,185.42,-1.25,-3.93,52.42
2026-03-30 12:07:15,37772.22,420.00,-48.50,80.01,8121.59,59.36,11.12,185.79,-1.26,-4.05,119.70
2026-03-30 12:07:16,37775.08,421.57,-48.61,80.00,8131.10,59.16,11.12,184.55,-1.27,-4.21,171.57
2026-03-30 12:07:17,37778.70,420.57,-48.50,79.99,8133.39,59.06,11.14,184.43,-1.28,-4.33,216.82
2026-03-30 12:07:18,37783.62,420.00,-48.51,79.98,8118.00,59.07,11.13,183.51,-1.30,-4.14,295.27
2026-03-30 12:07:19,37789.60,420.53,-48.62,79.97,8102.77,59.18,11.14,182.50,-1.19,-3.95,358.84
2026-03-30 12:07:20,37797.38,422.32,-48.63,79.97,8111.55,59.32,11.15,183.69,-1.29,-4.11,466.60
2026-03-30 12:07:21,37804.66,422.13,-48.54,79.96,8103.10,59.49,11.13,183.39,-1.28,-4.30,437.31
2026-03-30 12:07:22,37811.81,421.22,-48.66,79.95,8113.74,59.30,11.15,183.52,-1.27,-4.45,428.67
2026-03-30 12:07:23,37817.94,420.54,-48.76,79.94,8102.07,59.22,11.14,182.27,-1.18,-4.53,368.03
2026-03-30 12:07:24,37825.57,420.00,-48.81,79.93,8091.71,59.10,11.15,183.37,-1.07,-4.39,457.48
2026-03-30 12:07:25,37834.72,420.67,-48.83,79.92,8087.98,59.10,11.14,184.33,-0.97,-4.33,549.01
2026-03-30 12:07:26,37844.46,420.83,-48.72,79.92,8070.14,59.04,11.13,184.89,-0.93,-4.48,584.42
2026-03-30 12:07:27,37853.96,422.78,-48.59,79.90,8063.88,58.80,11.11,184.22,-0.86,-4.37,569.79
2026-03-30 12:07:28,37862.30,420.84,-48.46,79.88,8062.75,58.56,11.10,183.16,-0.83,-4.51,500.98
2026-03-30 12:07:29,37868.70,420.00,-48.56,79.88,8077.38,58.32,11.11,183.71,-0.77,-4.51,383.58
2026-03-30 12:07:30,37874.38,420.00,-48.62,79.87,8090.40,58.24,11.10,185.19,-0.79,-4.48,340.95
2026-03-30 12:07:31,37881.61,420.00,-48.73,79.86,8074.76,58.34,11.11,185.10,-0.84,-4.41,433.61
2026-03-30 12:07:32,37888.12,421.52,-48.78,79.84,8085.94,58.15,11.10,185.74,-0.88,-4.23,390.78
2026-03-30 12:07:33,37893.75,421.27,-48.92,79.83,8085.72,58.29,11.11,186.56,-0.99,-4.12,338.04
2026-03-30 12:07:34,37899.87,422.29,-48.99,79.82,8080.90,58.47,11.12,185.58,-1.02,-4.12,367.15
2026-03-30 12:07:35,37907.45,423.75,-49.04,79.82,8091.73,58.58,11.11,184.65,-1.05,-4.18,454.70
2026-03-30 12:07:36,37914.53,425.03,-48.99,79.82,8102.27,58.62,11.11,183.42,-1.05,-4.10,424.83
2026-03-30 12:07:37,37920.93,423.51,-49.02,79.80,8102.02,58.68,11.10,182.87,-0.94,-4.17,383.60
2026-03-30 12:07:38,37925.73,424.95,-49.15,79.79,8111.59,58.67,11.08,182.49,-1.04,-4.02,288.39
2026-03-30 12:07:39,37931.50,423.14,-49.10,79.79,8102.69,58.56,11.08,182.50,-0.93,-4.12,346.37
2026-03-30 12:07:40,37937.16,422.01,-49.24,79.77,8090.86,58.61,11.09,182.90,-0.81,-4.28,339.43
2026-03-30 12:07:41,37942.63,423.91,-49.18,79.76,8101.80,58.81,11.07,183.78,-0.79,-4.17,327.97
2026-03-30 12:07:42,37950.03,423.76,-49.18,79.75,8091.90,58.96,11.09,184.90,-0.79,-4.07,444.03
2026-03-30 12:07:43,37956.18,423.49,-49.21,79.73,8075.24,59.12,11.10,183.65,-0.83,-4.10,369.02
2026-03-30 12:07:44,37963.82,423.77,-49.22,79.72,8079.96,59.11,11.10,184.41,-0.76,-4.15,458.24
2026-03-30 12:07:45,37971.98,423.18,-49.14,79.71,8079.50,58.86,11.12,184.32,-0.88,-4.00,489.82
2026-03-30 12:07:46,37978.90,421.90,-49.28,79.70,8081.45,58.88,11.11,183.42,-0.91,-3.91,415.04
2026-03-30 12:07:47,37984.41,422.38,-49.33,79.68,8061.85,58.84,11.09,184.06,-0.99,-4.04,330.93
2026-03-30 12:07:48,37988.88,420.57,-49.37,79.67,8074.01,58.99,11.09,183.29,-0.87,-4.07,268.04
2026-03-30 12:07:49,37994.94,421.71,-49.47,79.65,8057.78,58.86,11.09,183.23,-0.94,-4.21,363.81
2026-03-30 12:07:50,38001.16,420.18,-49.59,79.64,8049.28,58.71,11.08,184.57,-0.84,-4.31,373.09
2026-03-30 12:07:51,38006.87,421.61,-49.61,79.63,8066.46,58.87,11.09,184.79,-0.75,-4.17,342.66
2026-03-30 12:07:52,38012.87,420.83,-49.67,79.61,8072.31,58.71,11.10,184.86,-0.84,-4.33,360.01
2026-03-30 12:07:53,38017.90,420.00,-49.61,79.59,8086.08,58.96,11.11,183.56,-0.75,-4.30,301.73
2026-03-30 12:07:54,38022.44,420.00,-49.74,79.57,8090.02,59.06,11.11,184.20,-0.73,-4.13,272.24
2026-03-30 12:07:55,38028.83,420.00,-49.62,79.55,8086.33,59.08,11.09,183.41,-0.81,-3.97,383.33
2026-03-30 12:07:56,38035.26,420.44,-49.53,79.54,8078.47,58.94,11.09,182.90,-0.85,-4.14,385.91
2026-03-30 12:07:57,38041.72,420.00,-49.53,79.54,8079.55,58.70,11.11,182.44,-0.75,-4.34,387.89
2026-03-30 12:07:58,38049.74,420.00,-49.50,79.52,8059.67,58.92,11.10,182.20,-0.65,-4.51,480.88
2026-03-30 12:07:59,38058.62,421.46,-49.64,79.50,8047.19,58.97,11.08,181.26,-0.69,-4.40,532.78
2026-03-30 12:08:00,38069.22,421.00,-49.56,79.49,8063.00,59.09,11.08,179.81,-0.57,-4.54,636.24
2026-03-30 12:08:01,38078.81,421.13,-49.44,79.48,8059.35,58.85,11.06,178.34,-0.57,-4.42,575.02
2026-03-30 12:08:02,38086.82,420.00,-49.58,79.47,8053.64,59.06,11.07,179.44,-0.65,-4.33,480.83
2026-03-30 12:08:03,38094.99,420.00,-49.71,79.46,8041.39,59.31,11.07,180.48,-0.59,-4.27,489.88
2026-03-30 12:08:04,38102.11,420.07,-49.76,79.45,8029.99,59.11,11.06,180.76,-0.50,-4.33,427.70
2026-03-30 12:08:05,38110.09,420.00,-49.74,79.45,8043.44,59.32,11.05,182.01,-0.49,-4.30,478.61
2026-03-30 12:08:06,38116.18,420.00,-49.72,79.44,8054.01,59.43,11.04,181.83,-0.38,-4.46,365.21
2026-03-30 12:08:07,38121.62,421.30,-49.87,79.43,8051.10,59.21,11.02,182.75,-0.47,-4.46,326.77
2026-03-30 12:08:08,38125.99,420.19,-49.95,79.43,8038.97,58.98,11.01,183.93,-0.41,-4.62,261.73
2026-03-30 12:08:09,38131.01,420.66,-50.07,79.42,8030.48,59.10,11.00,185.01,-0.35,-4.59,301.17
2026-03-30 12:08:10,38134.97,420.00,-49.99,79.41,8043.68,59.32,11.00,185.66,-0.42,-4.57,238.08
2026-03-30 12:08:11,38140.64,420.29,-49.96,79.40,8034.88,59.08,11.01,186.99,-0.50,-4.38,340.03
2026-03-30 12:08:12,38146.63,421.69,-49.82,79.38,8035.30,58.98,11.00,186.74,-0.61,-4.26,359.57
2026-03-30 12:08:13,38151.24,421.50,-49.82,79.37,8044.97,58.92,10.98,187.74,-0.65,-4.09,276.65
2026-03-30 12:08:14,38154.98,422.79,-49.92,79.35,8056.08,58.99,10.98,186.37,-0.63,-4.29,223.86
2026-03-30 12:08:15,38156.93,420.94,-49.89,79.34,8048.70,59.19,10.99,185.51,-0.74,-4.12,117.14
2026-03-30 12:08:16,38158.02,422.82,-49.99,79.32,8061.62,59.04,11.01,186.34,-0.72,-3.94,65.69
2026-03-30 12:08:17,38158.31,422.35,-50.09,79.31,8046.22,59.15,11.03,186.99,-0.70,-4.04,17.51
2026-03-30 12:08:18,38159.73,423.52,-50.16,79.29,8046.99,59.07,11.04,188.25,-0.78,-4.14,84.96
2026-03-30 12:08:19,38160.24,424.92,-50.12,79.28,8042.02,59.25,11.06,186.92,-0.77,-4.03,30.31
2026-03-30 12:08:20,38159.19,426.56,-50.17,79.26,8032.32,59.43,11.05,185.76,-0.68,-4.07,-62.51
2026-03-30 12:08:21,38157.72,425.30,-50.16,79.25,8023.53,59.60,11.03,186.14,-0.65,-3.96,-88.14
2026-03-30 12:08:22,38156.99,425.75,-50.23,79.24,8029.91,59.75,11.03,185.69,-0.73,-4.02,-43.92
2026-03-30 12:08:23,38154.94,424.95,-50.30,79.22,8037.11,59.56,11.02,184.19,-0.66,-4.02,-123.12
2026-03-30 12:08:24,38152.94,425.62,-50.40,79.20,8031.49,59.51,11.00,183.93,-0.70,-3.82,-120.09
2026-03-30 12:08:25,38149.97,425.15,-50.31,79.19,8019.42,59.31,11.00,184.85,-0.69,-3.62,-178.03
2026-03-30 12:08:26,38145.61,423.27,-50.34,79.18,8025.17,59.11,11.01,184.60,-0.73,-3.67,-261.66
2026-03-30 12:08:27,38142.58,422.69,-50.38,79.16,8042.97,59.33,10.99,185.69,-0.81,-3.47,-181.69
2026-03-30 12:08:28,38140.22,422.02,-50.40,79.15,8038.30,59.49,10.98,185.51,-0.70,-3.37,-141.89
2026-03-30 12:08:29,38138.40,422.73,-50.40,79.14,8018.50,59.27,10.98,184.77,-0.80,-3.25,-108.83
2026-03-30 12:08:30,38135.19,422.66,-50.44,79.12,8034.55,59.13,10.97,183.66,-0.80,-3.08,-192.86
2026-03-30 12:08:31,38131.08,423.31,-50.46,79.11,8045.27,59.15,10.95,183.67,-0.73,-3.28,-246.58
2026-03-30 12:08:32,38127.85,421.35,-50.57,79.09,8052.56,59.36,10.94,184.80,-0.64,-3.31,-193.93
2026-03-30 12:08:33,38125.53,420.10,-50.46,79.07,8041.37,59.24,10.95,184.43,-0.62,-3.27,-139.18
2026-03-30 12:08:34,38122.24,420.00,-50.50,79.06,8022.36,59.11,10.94,184.54,-0.51,-3.27,-197.55
2026-03-30 12:08:35,38118.58,421.74,-50.54,79.05,8025.60,59.30,10.95,184.90,-0.60,-3.12,-219.57
2026-03-30 12:08:36,38115.84,421.70,-50.68,79.04,8029.54,59.08,10.95,183.62,-0.69,-3.10,-164.23
2026-03-30 12:08:37,38112.10,421.72,-50.80,79.02,8033.47,59.13,10.94,182.73,-0.69,-3.08,-224.63
2026-03-30 12:08:38,38107.05,423.03,-50.66,79.00,8016.18,59.31,10.95,181.41,-0.66,-2.92,-302.75
2026-03-30 12:08:39,38100.14,423.77,-50.68,79.00,8032.55,59.47,10.96,180.32,-0.72,-2.82,-414.55
2026-03-30 12:08:40,38094.38,425.02,-50.78,78.99,8018.39,59.30,10.95,179.39,-0.83,-2.66,-345.79
2026-03-30 12:08:41,38090.02,425.63,-50.68,78.99,8007.87,59.15,10.94,179.35,-0.78,-2.65,-261.43
2026-03-30 12:08:42,38085.16,427.26,-50.78,78.97,7993.05,59.32,10.93,179.47,-0.87,-2.73,-291.88
2026-03-30 12:08:43,38081.05,427.42,-50.69,78.96,8000.09,59.42,10.92,179.17,-0.86,-2.61,-246.36
2026-03-30 12:08:44,38076.56,426.15,-50.75,78.95,8003.20,59.23,10.94,180.16,-0.76,-2.44,-269.44
2026-03-30 12:08:45,38072.62,426.64,-50.78,78.94,8003.20,59.10,10.94,181.11,-0.70,-2.50,-236.43
2026-03-30 12:08:46,38068.47,425.03,-50.91,78.93,8008.82,59.05,10.94,182.28,-0.82,-2.40,-248.66
2026-03-30 12:08:47,38065.83,425.35,-51.01,78.91,8026.26,59.01,10.96,182.76,-0.83,-2.50,-158.35
2026-03-30 12:08:48,38061.61,426.31,-51.16,78.90,8016.84,58.98,10.96,182.43,-0.84,-2.60,-253.49
2026-03-30 12:08:49,38058.91,426.63,-51.13,78.88,8034.56,59.21,10.94,181.15,-0.89,-2.60,-161.85
2026-03-30 12:08:50,38055.14,425.11,-51.08,78.87,8017.07,59.12,10.92,181.60,-0.94,-2.78,-226.22
2026-03-30 12:08:51,38051.87,425.43,-51.17,78.87,8004.37,58.93,10.91,181.03,-0.96,-2.91,-196.52
2026-03-30 12:08:52,38048.98,424.84,-51.31,78.85,8005.97,59.16,10.92,181.00,-1.06,-2.92,-173.05
2026-03-30 12:08:53,38046.59,426.39,-51.24,78.84,7993.36,59.14,10.94,182.03,-1.02,-2.86,-143.39
2026-03-30 12:08:54,38043.24,424.80,-51.26,78.83,8006.61,59.02,10.94,182.42,-1.12,-2.83,-201.27
2026-03-30 12:08:55,38038.89,426.69,-51.38,78.82,8020.61,59.02,10.94,183.51,-1.13,-2.64,-260.81
2026-03-30 12:08:56,38035.79,428.60,-51.24,78.82,8039.87,58.89,10.94,183.94,-1.12,-2.45,-186.36
2026-03-30 12:08:57,38032.51,427.56,-51.17,78.81,8037.36,58.89,10.93,182.94,-1.03,-2.49,-196.30
2026-03-30 12:08:58,38028.18,426.59,-51.17,78.79,8019.53,58.92,10.92,182.41,-1.10,-2.60,-259.88
2026-03-30 12:08:59,38025.66,427.22,-51.04,78.78,8024.67,58.75,10.90,182.14,-1.17,-2.53,-151.56
2026-03-30 12:09:00,38022.45,426.08,-50.90,78.77,8020.88,58.68,10.91,181.67,-1.10,-2.68,-192.31
2026-03-30 12:09:01,38018.89,427.10,-50.86,78.77,8029.60,58.50,10.90,181.88,-1.12,-2.56,-213.53
2026-03-30 12:09:02,38015.16,425.42,-50.89,78.76,8018.73,58.35,10.90,182.86,-1.05,-2.73,-223.84
2026-03-30 12:09:03,38011.28,426.41,-50.83,78.75,8029.50,58.24,10.92,181.53,-0.96,-2.90,-232.71
2026-03-30 12:09:04,38008.25,426.98,-50.69,78.74,8025.96,58.38,10.92,181.16,-1.04,-2.75,-181.85
2026-03-30 12:09:05,38004.35,426.55,-50.61,78.73,8030.69,58.44,10.92,182.07,-1.13,-2.63,-233.99
2026-03-30 12:09:06,38000.94,427.37,-50.65,78.72,8047.93,58.35,10.92,181.58,-1.03,-2.61,-204.67
2026-03-30 12:09:07,37996.72,427.61,-50.67,78.71,8028.31,58.23,10.93,180.89,-1.02,-2.60,-253.22
2026-03-30 12:09:08,37991.83,426.81,-50.66,78.70,8023.79,58.23,10.92,181.42,-1.14,-2.76,-293.28
2026-03-30 12:09:09,37988.57,427.61,-50.76,78.69,8040.00,58.01,10.91,180.91,-1.15,-2.65,-195.75
2026-03-30 12:09:10,37984.74,427.46,-50.74,78.68,8039.82,58.22,10.91,180.35,-1.19,-2.55,-229.67
2026-03-30 12:09:11,37981.31,427.27,-50.76,78.67,8050.78,58.14,10.90,181.82,-1.25,-2.66,-205.80
2026-03-30 12:09:12,37977.76,427.16,-50.83,78.66,8031.71,57.97,10.90,180.32,-1.20,-2.85,-213.31
2026-03-30 12:09:13,37976.01,428.94,-50.85,78.66,8034.31,58.00,10.88,179.10,-1.09,-3.02,-104.86
2026-03-30 12:09:14,37975.04,429.58,-50.81,78.64,8035.08,57.92,10.87,177.96,-1.20,-2.99,-58.28
2026-03-30 12:09:15,37972.14,428.70,-50.83,78.63,8036.46,57.73,10.89,178.93,-1.16,-3.11,-173.75
2026-03-30 12:09:16,37970.67,429.15,-50.85,78.61,8021.78,57.96,10.89,179.98,-1.04,-3.00,-88.48
2026-03-30 12:09:17,37970.41,428.02,-50.72,78.60,8028.77,57.84,10.87,179.57,-1.09,-3.07,-15.20
2026-03-30 12:09:18,37968.87,429.21,-50.87,78.58,8021.14,57.65,10.87,178.42,-1.02,-2.95,-92.68
2026-03-30 12:09:19,37965.41,428.24,-50.73,78.56,8029.29,57.44,10.88,177.72,-1.01,-3.12,-207.59
2026-03-30 12:09:20,37960.79,426.42,-50.83,78.56,8029.92,57.25,10.89,179.03,-1.02,-3.15,-277.46
2026-03-30 12:09:21,37957.17,426.04,-50.79,78.54,8034.89,57.06,10.90,177.64,-0.93,-3.33,-216.76
2026-03-30 12:09:22,37952.12,424.26,-50.85,78.52,8038.10,56.84,10.89,178.49,-1.04,-3.24,-303.16
2026-03-30 12:09:23,37946.35,423.29,-50.75,78.50,8029.18,56.86,10.89,178.81,-0.98,-3.12,-345.99
2026-03-30 12:09:24,37940.39,424.99,-50.88,78.50,8030.54,56.62,10.88,177.89,-0.97,-3.16,-357.85
2026-03-30 12:09:25,37934.05,425.43,-50.89,78.48,8022.97,56.82,10.89,179.34,-0.99,-3.06,-380.53
2026-03-30 12:09:26,37928.91,424.19,-50.98,78.47,8014.78,56.97,10.90,178.97,-0.94,-3.17,-308.33
2026-03-30 12:09:27,37924.49,425.24,-51.09,78.46,7996.18,56.82,10.90,180.35,-0.84,-3.08,-264.88
2026-03-30 12:09:28,37919.68,426.62,-51.15,78.45,7998.22,56.64,10.90,180.78,-0.82,-3.01,-288.97
2026-03-30 12:09:29,37914.66,427.75,-51.13,78.44,8001.49,56.48,10.91,179.90,-0.76,-3.11,-300.82
2026-03-30 12:09:30,37910.99,428.32,-51.25,78.42,8018.39,56.61,10.91,178.91,-0.71,-3.05,-220.26
2026-03-30 12:09:31,37909.24,428.33,-51.34,78.40,8038.35,56.56,10.93,178.26,-0.79,-3.25,-105.13
2026-03-30 12:09:32,37907.49,430.22,-51.46,78.38,8037.33,56.72,10.92,177.54,-0.75,-3.30,-105.24
2026-03-30 12:09:33,37905.37,430.90,-51.53,78.38,8021.10,56.55,10.94,177.55,-0.63,-3.31,-126.91
2026-03-30 12:09:34,37905.10,430.98,-51.62,78.36,8036.96,56.47,10.92,177.16,-0.74,-3.48,-16.06
2026-03-30 12:09:35,37905.31,432.16,-51.65,78.34,8026.10,56.36,10.93,177.98,-0.65,-3.41,12.22
2026-03-30 12:09:36,37906.22,432.87,-51.52,78.32,8015.65,56.13,10.94,179.13,-0.71,-3.35,54.54
2026-03-30 12:09:37,37908.94,434.77,-51.41,78.32,8030.32,56.37,10.94,179.01,-0.78,-3.34,163.18
2026-03-30 12:09:38,37910.28,433.40,-51.54,78.31,8012.06,56.37,10.93,178.49,-0.79,-3.23,80.64
2026-03-30 12:09:39,37912.44,432.32,-51.55,78.30,8002.63,56.21,10.94,179.50,-0.86,-3.09,129.66
2026-03-30 12:09:40,37915.81,433.00,-51.54,78.30,8020.16,56.26,10.94,178.48,-0.90,-3.00,202.05
2026-03-30 12:09:41,37917.51,431.67,-51.43,78.28,8010.41,56.39,10.95,177.33,-0.85,-2.91,102.08
2026-03-30 12:09:42,37920.38,432.18,-51.38,78.28,8025.15,56.43,10.95,176.59,-0.95,-2.82,172.12
2026-03-30 12:09:43,37923.04,431.49,-51.45,78.27,8018.70,56.22,10.95,177.19,-0.91,-2.86,159.66
2026-03-30 12:09:44,37926.10,430.99,-51.41,78.25,8033.05,56.43,10.96,175.90,-0.83,-2.98,183.77
2026-03-30 12:09:45,37927.39,431.60,-51.37,78.25,8031.20,56.66,10.96,174.86,-0.83,-2.84,77.18
2026-03-30 12:09:46,37928.46,430.89,-51.27,78.24,8033.30,56.87,10.97,175.52,-0.75,-2.84,64.15
2026-03-30 12:09:47,37928.46,429.29,-51.38,78.24,8040.31,56.95,10.95,175.28,-0.80,-2.97,0.30
2026-03-30 12:09:48,37926.80,427.31,-51.40,78.22,8033.35,56.74,10.97,175.74,-0.70,-2.97,-99.73
2026-03-30 12:09:49,37923.96,426.83,-51.45,78.21,8051.39,56.70,10.97,177.04,-0.62,-3.10,-170.19
2026-03-30 12:09:50,37920.74,426.67,-51.33,78.20,8050.14,56.52,10.99,178.00,-0.69,-3.23,-193.34
2026-03-30 12:09:51,37919.02,426.07,-51.32,78.19,8046.04,56.69,10.98,178.41,-0.80,-3.11,-103.59
2026-03-30 12:09:52,37915.86,427.65,-51.41,78.17,8052.21,56.73,11.00,179.83,-0.80,-3.24,-189.55
2026-03-30 12:09:53,37912.88,428.14,-51.45,78.17,8069.05,56.87,11.02,180.17,-0.75,-3.26,-178.61
2026-03-30 12:09:54,37908.35,426.75,-51.36,78.16,8081.56,56.93,11.02,179.74,-0.82,-3.33,-271.65
2026-03-30 12:09:55,37902.02,426.05,-51.37,78.14,8081.34,57.15,11.00,179.88,-0.82,-3.45,-379.74
2026-03-30 12:09:56,37895.61,425.66,-51.44,78.13,8084.16,57.11,11.00,180.63,-0.76,-3.47,-384.95
2026-03-30 12:09:57,37889.50,423.72,-51.29,78.11,8091.12,56.97,11.02,180.23,-0.69,-3.50,-366.29
2026-03-30 12:09:58,37885.35,425.25,-51.35,78.10,8101.06,56.93,11.02,180.55,-0.58,-3.38,-249.08
2026-03-30 12:09:59,37882.43,426.93,-51.22,78.09,8088.69,57.02,11.01,181.71,-0.50,-3.41,-175.32
2026-03-30 12:10:00,37879.75,426.83,-51.15,78.07,8090.47,57.02,10.99,181.01,-0.50,-3.51,-160.51
2026-03-30 12:10:01,37875.69,428.72,-51.01,78.05,8074.24,57.10,11.01,181.74,-0.62,-3.42,-243.79
2026-03-30 12:10:02,37872.86,429.32,-50.93,78.04,8066.72,57.21,11.02,182.94,-0.62,-3.26,-169.67
2026-03-30 12:10:03,37871.89,427.87,-51.08,78.02,8070.64,57.25,11.04,184.43,-0.70,-3.31,-58.64
2026-03-30 12:10:04,37870.74,428.18,-50.93,78.00,8059.29,57.02,11.06,182.96,-0.74,-3.26,-68.69
2026-03-30 12:10:05,37869.15,429.61,-50.84,77.99,8068.78,57.26,11.04,182.87,-0.64,-3.38,-95.73
2026-03-30 12:10:06,37869.24,431.01,-50.77,77.97,8070.04,57.36,11.05,182.91,-0.54,-3.39,5.80
2026-03-30 12:10:07,37870.54,430.08,-50.69,77.97,8057.29,57.58,11.04,183.29,-0.45,-3.57,77.61
2026-03-30 12:10:08,37872.46,431.85,-50.64,77.96,8070.13,57.73,11.03,184.20,-0.38,-3.59,115.62
2026-03-30 12:10:09,37872.60,432.87,-50.66,77.95,8076.43,57.85,11.01,183.35,-0.49,-3.46,7.97
2026-03-30 12:10:10,37874.68,432.41,-50.56,77.95,8087.89,57.62,11.02,182.10,-0.46,-3.65,125.30
2026-03-30 12:10:11,37874.84,431.63,-50.70,77.93,8079.15,57.53,11.01,182.41,-0.44,-3.76,9.50
2026-03-30 12:10:12,37875.70,430.90,-50.57,77.91,8065.33,57.37,11.03,183.30,-0.39,-3.77,51.38
2026-03-30 12:10:13,37878.37,430.92,-50.49,77.90,8072.00,57.41,11.05,183.21,-0.31,-3.61,160.55
2026-03-30 12:10:14,37880.51,431.57,-50.35,77.89,8075.15,57.59,11.07,182.51,-0.20,-3.47,128.10
2026-03-30 12:10:15,37883.38,430.03,-50.40,77.88,8077.12,57.64,11.08,182.60,-0.18,-3.63,172.42
2026-03-30 12:10:16,37887.49,429.10,-50.27,77.87,8079.14,57.40,11.08,183.40,-0.21,-3.79,246.57
2026-03-30 12:10:17,37891.76,430.36,-50.21,77.86,8099.10,57.40,11.09,183.71,-0.26,-3.89,256.33
2026-03-30 12:10:18,37895.73,429.81,-50.27,77.85,8116.85,57.17,11.10,184.25,-0.33,-3.91,237.83
2026-03-30 12:10:19,37900.10,430.76,-50.28,77.84,8106.32,57.13,11.08,184.85,-0.36,-3.82,262.42
2026-03-30 12:10:20,37902.87,429.87,-50.13,77.83,8097.59,56.97,11.08,186.34,-0.37,-3.86,165.94
2026-03-30 12:10:21,37907.24,427.95,-50.00,77.82,8079.08,56.98,11.09,187.11,-0.32,-3.70,262.08
2026-03-30 12:10:22,37911.64,428.47,-50.13,77.80,8071.69,56.83,11.10,188.53,-0.27,-3.68,264.32
2026-03-30 12:10:23,37914.65,427.62,-50.17,77.79,8086.61,57.02,11.11,187.49,-0.39,-3.84,180.29
2026-03-30 12:10:24,37916.52,428.04,-50.06,77.78,8104.38,57.15,11.09,187.99,-0.43,-3.89,112.25
2026-03-30 12:10:25,37919.74,427.69,-50.09,77.77,8098.17,57.16,11.09,188.45,-0.33,-3.82,193.34
2026-03-30 12:10:26,37924.65,427.52,-50.09,77.75,8097.16,57.30,11.07,189.57,-0.36,-3.62,294.40
2026-03-30 12:10:27,37931.09,429.14,-50.02,77.73,8106.50,57.35,11.06,188.95,-0.40,-3.54,386.77
2026-03-30 12:10:28,37937.05,429.80,-50.08,77.72,8123.43,57.24,11.07,188.25,-0.35,-3.53,357.75
2026-03-30 12:10:29,37943.08,428.80,-50.02,77.71,8114.50,57.40,11.05,187.91,-0.43,-3.40,361.34
2026-03-30 12:10:30,37950.89,427.53,-50.15,77.70,8104.86,57.31,11.07,186.43,-0.45,-3.47,468.51
